City_ID,City,Country,Max Temp,Current Description,Lat,Lng,Hotel Name
0,Bluff,NZ,60.8,overcast clouds,-46.6,168.3333,Bluff Homestead - Guesthouse & Campervan Park
1,Camacha,PT,60.22,few clouds,33.0833,-16.3333,Hotel Porto Santo & Spa
2,Mount Gambier,AU,54.97,light rain,-37.8333,140.7667,The Commodore
3,New Norfolk,AU,51.3,light rain,-42.7826,147.0587,The Shingles Riverside Cottages
6,Airai,TL,67.75,scattered clouds,-8.9266,125.4092,
8,Olafsvik,IS,38.12,overcast clouds,64.8945,-23.7142,Hotel Olafsvik
11,Port Elizabeth,ZA,61.32,clear sky,-33.918,25.5701,39 On Nile Guest House
12,Muros,ES,58.15,scattered clouds,42.7762,-9.0603,Apartment Av. Castelao
13,Bethel,US,53.91,moderate rain,41.3712,-73.414,Courtyard by Marriott Danbury
18,Kodiak,US,45.91,overcast clouds,57.79,-152.4072,Best Western Kodiak Inn And Convention Center
20,Bronnoysund,NO,41.0,broken clouds,65.4625,12.1997,Corner Hotel
21,Viedma,AR,58.48,broken clouds,-40.8135,-62.9967,Hotel Cristal
22,Ushuaia,AR,44.26,broken clouds,-54.8,-68.3,Albatross Hotel
23,Mataura,NZ,60.48,overcast clouds,-46.1927,168.8643,Ellie's Villa
24,Olavarria,AR,62.02,clear sky,-36.8927,-60.3225,Hotel Santa Rosa
25,Himare,AL,62.1,broken clouds,40.1017,19.7447,Hotel Dhima
27,Albany,US,56.44,overcast clouds,42.6001,-73.9662,
29,Chuy,UY,57.76,clear sky,-33.6971,-53.4616,Nuevo Hotel Plaza
30,Norman Wells,CA,42.84,overcast clouds,65.282,-126.8329,Heritage Hotel
35,Chicama,PE,63.14,scattered clouds,-7.8447,-79.1469,Balihai Bungalows
37,San Cristobal,VE,66.38,overcast clouds,7.7669,-72.225,Pirineos
41,Torbay,CA,36.28,overcast clouds,47.6666,-52.7314,Gallows Cove
42,Amazar,RU,49.46,few clouds,53.858,120.875,Гостиничный Комплекс Уют
44,Mahebourg,MU,73.69,few clouds,-20.4081,57.7,Shandrani Beachcomber Resort & Spa
46,Port Alfred,ZA,63.18,overcast clouds,-33.5906,26.891,The Halyards Hotel
47,Ouango,CF,71.22,overcast clouds,4.3133,22.5552,
49,Darlawn,IN,64.98,clear sky,24.0167,92.9,BNRGSK BUILDING
52,Jalu,LY,74.44,overcast clouds,29.0331,21.5482,صاحبة الفخامة
54,Ancud,CL,52.14,overcast clouds,-41.8697,-73.8203,Hotel Arena Gruesa
56,Ballina,AU,67.01,light rain,-28.8667,153.5667,Ramada Hotel & Suites by Wyndham Ballina Byron
58,Yarke Pole,UA,48.0,overcast clouds,45.608,34.3172,
60,High Level,CA,42.91,moderate rain,58.5169,-117.136,Days Inn by Wyndham High Level
63,Kaitangata,NZ,61.61,overcast clouds,-46.2817,169.8464,Kaitangata Motor Camp
64,Yellowknife,CA,52.32,broken clouds,62.456,-114.3525,The Explorer Hotel
65,Caazapa,PY,60.17,broken clouds,-26.15,-56.4,Cabaña San Miguel - 11 Estrellas
67,Pendleton,US,60.62,overcast clouds,45.6721,-118.7886,Americas Best Value Inn Pendleton
68,Mar Del Plata,AR,59.88,fog,-38.0023,-57.5575,Gran Hotel Mar del Plata
69,Ilhabela,BR,67.19,few clouds,-23.7781,-45.3581,Ilha Flat Hotel
71,Busselton,AU,57.69,clear sky,-33.65,115.3333,Observatory Guest House
72,Punta Arenas,CL,44.71,light rain,-53.15,-70.9167,Hotel Hain
73,Severo-Kurilsk,RU,42.98,broken clouds,50.6789,156.125,Kak Doma
74,Cape Town,ZA,57.61,broken clouds,-33.9258,18.4232,"Radisson Blu Hotel Waterfront, Cape Town"
75,Mopipi,BW,66.7,clear sky,-21.1833,24.8833,
76,Gat,IL,60.4,clear sky,31.61,34.7642,OlusHome
78,Beloha,MG,71.04,few clouds,-25.1667,45.05,
79,Suda,RU,39.31,broken clouds,59.1525,37.5582,
81,Nikolayevsk-Na-Amure,RU,36.66,broken clouds,53.1406,140.73,Mini-hotel «Quiet Harbor»
82,Puerto Ayora,EC,73.56,overcast clouds,-0.7393,-90.3518,Finch Bay Galapagos Hotel
83,Zamora,EC,68.86,light rain,-4.0692,-78.9567,Cabañas Ecológicas Copalinga
84,Yulara,AU,55.24,clear sky,-25.2406,130.9889,Desert Gardens Hotel - Ayers Rock Resort
86,Hasaki,JP,68.4,overcast clouds,35.7333,140.8333,Inubosaki Kanko Hotel
87,Saint-Laurent-Du-Var,FR,62.74,broken clouds,43.671,7.1761,Pierre et Vacances Heliotel Marine
88,Ishinomaki,JP,66.2,clear sky,38.4167,141.3,Ishinomaki Grand Hotel
89,Buraydah,SA,73.85,clear sky,26.326,43.975,Mövenpick Qassim
90,Cidreira,BR,62.51,broken clouds,-30.1811,-50.2056,Hotel Castelo
91,Constitucion,CL,54.99,clear sky,-35.3333,-72.4167,Hotel Boutique Las Azucenas
92,Ponta Do Sol,PT,68.63,broken clouds,32.6667,-17.1,Hotel do Campo
94,Mobai,SL,74.25,scattered clouds,7.9944,-10.7511,
95,Hermanus,ZA,54.81,moderate rain,-34.4187,19.2345,Misty Waves Boutique Hotel
96,Pitimbu,BR,73.99,light rain,-7.4706,-34.8086,Reserva do Abiaí
97,Deep River,CA,48.67,clear sky,46.1001,-77.4995,Deep River Motel
98,Huarmey,PE,66.29,clear sky,-10.0681,-78.1522,Hotel Miramar
99,Bredasdorp,ZA,56.53,light rain,-34.5322,20.0403,Bredasdorp Country Manor
100,Wismar,DE,50.4,scattered clouds,53.9,11.4667,Townhouse Wismar a Vagabond Club
102,Matagami,CA,41.11,clear sky,49.7502,-77.6328,Motel Le Caribou
104,Vestmannaeyjar,IS,41.54,broken clouds,63.4427,-20.2734,Glamping & Camping
106,Sao Felix Do Xingu,BR,72.72,broken clouds,-6.6447,-51.995,Rio Xingu Camping
107,Ekibastuz,KZ,44.56,light rain,51.6667,75.3667,
108,Verin,ES,60.57,scattered clouds,41.9415,-7.4381,Parador de Verín
110,Carnarvon,AU,64.47,overcast clouds,-24.8667,113.6333,Hospitality Carnarvon
111,Lagoa,PT,60.3,few clouds,39.05,-27.9833,Casa Das Faias
115,Weyburn,CA,73.26,clear sky,49.6668,-103.8511,Perfect Inns & Suites
116,Namibe,AO,74.53,clear sky,-15.1961,12.1522,Hotel Chik Chik Namibe
117,Kroonstad,ZA,54.28,clear sky,-27.6504,27.2349,Travel Inn Kroonstad
118,Bulgan,MN,41.72,overcast clouds,48.8125,103.5347,Unitel Булган салбар
120,Kitimat,CA,51.91,light rain,54.0524,-128.6534,Kingfish Westcoast Adventures Ltd. Kitimat Estuary Lodge B&B
121,Tahta,EG,68.86,clear sky,26.7693,31.5021,فندق الزيات
122,Mporokoso,ZM,59.11,broken clouds,-9.3727,30.125,Government Guest House
123,Nelson Bay,AU,60.12,scattered clouds,-32.7167,152.15,Mantra Nelson Bay
127,Nome,US,36.16,overcast clouds,64.5011,-165.4064,Dredge 7 Inn
130,Hobart,AU,51.66,heavy intensity shower rain,-42.8794,147.3294,St Ives Hobart Accommodation Tasmania
132,Wembley,AU,61.0,clear sky,-31.9333,115.8,Cambridge Atrium
134,Constantine,DZ,51.21,scattered clouds,36.365,6.6147,Grand Hotel Cirta
135,Chadan,RU,52.48,broken clouds,51.2833,91.5833,Zharki
136,Jamestown,US,55.02,overcast clouds,42.097,-79.2353,Hampton Inn & Suites Jamestown
143,Sitka,US,48.09,scattered clouds,57.0531,-135.33,Westmark Sitka
144,Fereydun Kenar,IR,61.14,light rain,36.6864,52.5225,Khezer Shahr Tourist Hotel
145,Bell Ville,AR,63.07,broken clouds,-32.6259,-62.6887,Hotel Central
146,Teya,RU,44.24,broken clouds,60.3778,92.6267,
147,Pop,UZ,66.69,clear sky,40.8736,71.1089,Ramz Hotel Pap
148,Parana,AR,66.56,overcast clouds,-31.732,-60.5238,Howard Johnson by Wyndham Plaza Hotel Mayorazgo
152,Fairbanks,US,51.76,light rain,64.8378,-147.7164,Westmark Fairbanks Hotel & Conference Center
154,Shenkursk,RU,40.73,overcast clouds,62.1091,42.896,"""Vaga"" hotel"
155,Arraial Do Cabo,BR,69.76,few clouds,-22.9661,-42.0278,Pousada Porto Praia
156,Aksu,CN,69.73,broken clouds,41.1231,80.2644,Pudong Holiday Hotel
159,Qingdao,CN,58.6,overcast clouds,36.0986,120.3719,Le Meridien Qingdao
160,Castro,BR,53.58,clear sky,-24.7911,-50.0119,CHACARA BAILLY
161,Phalaborwa,ZA,63.68,clear sky,-23.943,31.1411,Bothabelo Bed and Breakfast
162,Kamenka,RU,39.07,clear sky,51.3223,42.7678,
163,East London,ZA,67.64,overcast clouds,-33.0153,27.9116,Tu Casa
164,Nouadhibou,MR,66.18,clear sky,20.931,-17.0347,El Medina
165,Thompson,CA,60.96,broken clouds,55.7435,-97.8558,Burntwood Hotel
167,Mbaiki,CF,71.47,overcast clouds,3.8678,17.9892,Motel MBM
169,Hamilton,US,63.23,mist,39.1834,-84.5333,Six Acres Bed & Breakfast
171,Mabaruma,GY,74.59,overcast clouds,8.2,-59.7833,Monty Brooms Guest House
172,Nalut,LY,62.85,clear sky,30.3333,10.85,
178,Haines Junction,CA,46.35,overcast clouds,60.7522,-137.5108,Parkside Inn
179,Coquimbo,CL,56.93,overcast clouds,-29.9533,-71.3436,Hotel San Juan
180,Paris,FR,59.18,clear sky,48.8534,2.3488,Hôtel Britannique - Paris Centre
182,Lins,BR,62.02,clear sky,-21.6786,-49.7425,Blue Tree Thermas de Lins
185,Tuckahoe,US,66.34,mist,37.5901,-77.5564,The Westin Richmond
187,Sorland,NO,40.91,broken clouds,67.667,12.6934,Sjybrygga fiskecamp
188,Yumen,CN,55.76,overcast clouds,40.2833,97.2,
191,Chilca,PE,64.69,clear sky,-12.5211,-76.7372,Playa Punta Yaya - Las Salinas
193,Erenhot,CN,43.39,overcast clouds,43.6475,111.9767,Erenhot Rurouni Youth Hostel
194,Jaroslaw,PL,55.8,overcast clouds,50.0162,22.6778,Hotel & Restauracja Coloseum
195,Palafrugell,ES,66.43,broken clouds,41.9174,3.1631,Hotel La Torre
196,Gilgit,PK,66.58,few clouds,35.9221,74.3087,Tourist Hamlet Gilgit
197,Tromso,NO,42.82,light rain,69.6496,18.957,"Radisson Blu Hotel, Tromsø"
199,Priargunsk,RU,51.06,clear sky,50.3691,119.1012,24 Chasa
200,Mocuba,MZ,64.08,clear sky,-16.8392,36.9856,Phama Lodge
201,Kulu,TR,43.09,scattered clouds,39.0951,33.0799,Kapadokya Motel
203,Port Lincoln,AU,57.38,few clouds,-34.7333,135.8667,Port Lincoln Hotel
206,Flin Flon,CA,54.01,overcast clouds,54.7682,-101.865,Victoria Inn Flin Flon
211,Chernyshevskiy,RU,37.81,overcast clouds,63.0128,112.4714,Chernyseyskiy
213,Teguldet,RU,53.55,overcast clouds,57.3064,88.1667,
218,Mount Isa,AU,67.77,clear sky,-20.7333,139.5,ibis Styles Mt Isa Verona
224,Nantucket,US,53.65,light rain,41.2835,-70.0995,Jared Coffin House
225,Te Anau,NZ,60.76,light rain,-45.4167,167.7167,Kingsgate Hotel Te Anau
226,Shimoda,JP,62.96,overcast clouds,34.6667,138.95,Shimoda Tokyu Hotel
227,Krasnoturansk,RU,50.04,broken clouds,54.3186,91.5639,Sotsial'naya Gostinitsa
229,Ribeira Grande,PT,61.41,scattered clouds,38.5167,-28.7,Quinta da Meia Eira
231,Palmer,US,57.81,overcast clouds,42.1584,-72.3287,Wedgewood Motel
234,Luebo,CD,73.54,overcast clouds,-5.35,21.4167,
235,Minsk,BY,53.35,overcast clouds,53.9,27.5667,Minsk Hotel
236,Belyy Yar,RU,49.89,clear sky,53.6039,91.3903,Pasportnyy Stol
237,Esperance,AU,56.25,clear sky,-33.8667,121.9,Hospitality Esperance
238,Uruzgan,AF,66.76,clear sky,32.8333,66.0,
240,Chapais,CA,37.18,scattered clouds,49.7834,-74.8492,Hôtel Opémiska
241,Araripina,BR,72.18,few clouds,-7.5761,-40.4983,Hotel Eco Recanto da Serra
242,Chengde,CN,53.4,broken clouds,40.9725,117.9361,Super 8 Hotel
245,Narsaq,GL,37.62,overcast clouds,60.9167,-46.05,Sleep In Narsaq
246,Ifakara,TZ,71.37,overcast clouds,-8.1333,36.6833,Tanzanian Training Centre for International Health
249,Laela,TZ,56.53,broken clouds,-8.5667,32.05,
250,Khilok,RU,46.83,broken clouds,51.3674,110.4676,"Gostevoy Dom ""Magnit"""
251,College,US,51.75,broken clouds,64.8569,-147.8028,Pike's Waterfront Lodge
255,Los Llanos De Aridane,ES,62.35,broken clouds,28.6585,-17.9182,Valle Aridane
256,La Solana,ES,53.83,clear sky,38.9442,-3.2381,Apartamento Prado
258,Douglas,US,66.38,overcast clouds,41.3,-96.167,Hilton Garden Inn Omaha West
262,Kungurtug,RU,45.81,few clouds,50.5994,97.5228,
263,Moron,AR,65.95,clear sky,-34.6534,-58.6198,Hotel Morón
266,Skagen,DK,50.38,overcast clouds,57.7209,10.5839,Ruth's Hotel
267,Eureka,US,59.67,overcast clouds,40.8021,-124.1637,Eureka Inn Trademark By Wyndham
268,Rawson,AR,60.3,overcast clouds,-43.3002,-65.1023,Hosteria Sampedro
271,Steubenville,US,56.64,overcast clouds,40.3698,-80.634,University hotel steubenville
272,Inverness,GB,49.78,overcast clouds,57.4791,-4.224,Glen Mhor Hotel & Apartments
274,Ketchikan,US,48.67,scattered clouds,55.3422,-131.6461,Snow's Cove Lodge
275,Bukachacha,RU,48.33,overcast clouds,52.9833,116.9167,
276,Naze,JP,74.32,overcast clouds,28.3667,129.4833,Shishime Hotel
277,Tuyen Quang,VN,73.9,overcast clouds,21.8233,105.2181,Khách Sạn Tuyên Thoa
278,Goderich,CA,61.12,broken clouds,43.7501,-81.7165,Harmony Inn
279,Nikolskoye,RU,50.81,few clouds,59.7035,30.7861,Tourist House - Sablino
281,Ulladulla,AU,56.77,overcast clouds,-35.35,150.4667,Sandpiper Motel
282,Portland,US,60.53,moderate rain,45.5234,-122.6762,Embassy Suites by Hilton Portland Downtown
288,Ahipara,NZ,67.73,clear sky,-35.1667,173.1667,Ahipara Holiday Park
290,Vardo,NO,39.4,overcast clouds,70.3705,31.1107,Vardø Hotel AS
291,Uglich,RU,43.66,broken clouds,57.5275,38.3317,Volzhskaya Riv'yera
292,Ulaanbaatar,MN,35.73,heavy intensity rain,47.9077,106.8832,The Blue Sky Hotel and Tower
293,Kathmandu,NP,64.62,broken clouds,27.7167,85.3167,Hotel Shanker Kathmandu
294,Zhezkazgan,KZ,51.13,scattered clouds,47.8043,67.7144,Hotel Zumrat
295,Banyo,CM,68.47,overcast clouds,6.75,11.8167,Motel JOMBA
296,Xai-Xai,MZ,65.93,clear sky,-25.0519,33.6442,Complexo da Familia
297,Oktyabrskiy,RU,35.87,scattered clouds,54.4815,53.471,Гостиница Октябрьская
298,Saint-Philippe,RE,71.19,light rain,-21.3585,55.7679,"Chambres d'hôte ""La Trinité"""
301,Macamic,CA,41.54,clear sky,48.7502,-78.9996,"Maison Tardif Enr. - Chambre à Macamic, QC"
302,Pudozh,RU,40.53,broken clouds,61.8099,36.5345,Guest-House na Transportnoy
304,Alekseyevsk,RU,43.72,overcast clouds,57.8406,108.3492,
306,Chokwe,MZ,65.37,clear sky,-24.5333,32.9833,Complexo Sonho Real
307,Centralia,US,56.44,overcast clouds,46.7162,-122.9543,Peppermill Inn
309,Hualmay,PE,65.01,clear sky,-11.0964,-77.6139,Hotel Villa Kitzia Huacho
310,Saiki,JP,69.37,scattered clouds,32.95,131.9,（株）サンテツ
312,Conde,BR,72.86,broken clouds,-7.2597,-34.9075,Pousada Beija Flor
313,Grand Gaube,MU,73.8,scattered clouds,-20.0064,57.6608,Veranda Paul et Virginie Hotel & Spa
314,Prince Rupert,CA,48.29,clear sky,54.3161,-130.3201,Crest Hotel
315,El Alto,PE,67.75,scattered clouds,-4.2714,-81.2147,Black Marlin Restaurant & Hospedaje
316,Seoul,KR,63.79,broken clouds,37.5683,126.9778,롯데호텔 서울
317,Tiznit,MA,73.18,broken clouds,29.5833,-9.5,
318,Helong,CN,51.31,broken clouds,42.5397,128.9972,Helong Hotel
320,Devonport,AU,55.09,broken clouds,-41.1667,146.35,Gateway Hotel by Nightcap Plus
321,Roald,NO,46.76,broken clouds,62.5833,6.1333,Flem Cabins
322,Toyoshina,JP,69.15,few clouds,36.2999,137.9011,Hotel Route-Inn Court Azumino Toyoshina Ekiminami
324,Tapes,BR,59.04,broken clouds,-30.6733,-51.3958,Cabanas Camping Union
325,Mvuma,ZW,53.4,clear sky,-19.2792,30.5283,Nyangombe Backpackers
326,Byron Bay,AU,66.94,overcast clouds,-28.65,153.6167,Backpackers Inn
328,Bauru,BR,67.14,clear sky,-22.3147,-49.0606,Astor Hotel
329,Atbasar,KZ,38.7,overcast clouds,51.8,68.3333,Гостиничный Комплекс Saad
330,Tete,MZ,66.31,clear sky,-16.1564,33.5867,Zambeze Paraíso Misterioso
331,Lebu,CL,52.34,broken clouds,-37.6167,-73.65,Hostal Las Lilas
332,Kargopol,RU,37.98,few clouds,61.5071,38.9456,Moroshka Inn
333,Khani,GE,42.37,overcast clouds,41.9563,42.9566,კურორტი ზეკარი/Resort Zekari
334,Cabedelo,BR,74.07,scattered clouds,-6.9811,-34.8339,Hotel Pigalle
335,Hinton,CA,53.42,overcast clouds,53.4001,-117.5857,Econo Lodge & Suites
337,Moutier,CH,53.26,broken clouds,47.2782,7.3695,Hôtel-Restaurant de l´Etoile
342,Hvide Sande,DK,51.1,overcast clouds,56.0045,8.1294,Hvide Sande Hotel
343,Kutum,SD,74.77,broken clouds,14.2,24.6667,Dibbo areaمنطقة دبو
344,Kruisfontein,ZA,59.38,overcast clouds,-34.0033,24.7314,Oyster Bay House Rental
348,Frome,GB,56.1,overcast clouds,51.2283,-2.3221,Premier Inn Frome hotel
349,Ostrovnoy,RU,35.71,overcast clouds,68.0531,39.5131,
354,Waddan,LY,66.72,overcast clouds,29.1614,16.139,محل الشريف محمد العايب
356,Necochea,AR,56.5,few clouds,-38.5473,-58.7368,dyd -mar Hotel
358,Jennings,US,55.42,overcast clouds,38.7192,-90.2604,First Western Inn
359,Mackenzie,CA,43.02,overcast clouds,55.2999,-123.1698,Hilton Shop
360,Ulaangom,MN,53.58,clear sky,49.9811,92.0667,Achit Nuur Hotel & Restaurant
363,Abu Kamal,SY,61.27,light rain,34.4506,40.9171,البوكمال
364,Karema,TZ,70.14,scattered clouds,-6.8205,30.4389,
365,Palora,EC,66.94,overcast clouds,-1.7,-77.9333,Rancho grande
366,Vilyuysk,RU,38.62,overcast clouds,63.7553,121.6247,Gostinitsa Viliuisk
367,Svetlaya,RU,50.43,light rain,46.5389,138.3297,
368,Baykit,RU,41.5,broken clouds,61.67,96.37,
369,La Ronge,CA,55.62,broken clouds,55.1001,-105.2842,Northland Motor Hotel
370,Nigde,TR,37.27,overcast clouds,37.8333,34.75,
371,Comodoro Rivadavia,AR,53.46,clear sky,-45.8667,-67.5,Austral Hotel
372,Korla,CN,69.39,clear sky,41.7597,86.1469,Gulisitan Hotel
373,Sao Joao Da Barra,BR,71.73,few clouds,-21.6403,-41.0511,Pousada Porto De Canoas
374,Asfi,MA,65.8,broken clouds,32.2994,-9.2372,Hôtel Abda
375,Caravelas,BR,74.62,broken clouds,-17.7125,-39.2481,Pousada dos Navegantes
377,Lata,PT,56.07,scattered clouds,40.1629,-8.3327,Casa Maquia
380,Hofn,IS,37.9,few clouds,64.2539,-15.2082,Hótel Höfn
382,Kushima,JP,70.29,broken clouds,31.4583,131.2333,Hanaoka
383,Merke,KZ,59.41,few clouds,42.8728,73.1786,Gostinitsa Merki
384,Leninskoye,KZ,63.23,clear sky,41.7589,69.3864,Leonid Rakhmanov
386,Chipata,ZM,60.12,scattered clouds,-13.6333,32.65,Protea Hotel by Marriott Chipata
389,Praia,CV,72.14,clear sky,14.9215,-23.5087,LT Aparthotel
392,San Carlos De Bariloche,AR,51.55,clear sky,-41.1456,-71.3082,Hotel Patagonia
394,Lakes Entrance,AU,59.16,overcast clouds,-37.8811,147.981,The Esplanade Resort & Spa
395,Yuanping,CN,52.66,overcast clouds,38.7153,112.7575,Yuanping Xinghe Guesthouse
396,Marzuq,YE,72.3,clear sky,14.4,46.4667,
397,Kiama,AU,60.58,few clouds,-34.6833,150.8667,The Sebel Kiama Harbourside
398,Jiuquan,CN,59.29,overcast clouds,39.7432,98.5174,Jiuquan Hotel
399,Forio,IT,61.43,overcast clouds,40.7342,13.8646,Hotel Terme Providence
401,Graaff-Reinet,ZA,56.91,broken clouds,-32.2522,24.5308,Rietjiesbos Self Catering
403,Elmshorn,DE,53.98,scattered clouds,53.75,9.65,Hotel Royal
405,Wurzburg,DE,55.24,broken clouds,49.7878,9.9361,Hotel Strauss - Würzburg
406,Edson,CA,55.54,overcast clouds,53.5835,-116.4356,"Holiday Inn Express & Suites Edson, an IHG Hotel"
407,Imbituba,BR,61.25,broken clouds,-28.24,-48.6703,Praia Hotel Imbituba
408,Blyznyuky,UA,41.49,clear sky,48.8578,36.5551,
409,Dalby,AU,58.98,overcast clouds,-27.1833,151.2667,Kobbers Motor Inn Dalby
412,Banepa,NP,62.92,broken clouds,27.6298,85.5214,Dhulikhel Lodge Resort
413,Gemena,CD,70.36,overcast clouds,3.25,19.7667,Hôtel Goshen
414,Rockingham,US,59.18,overcast clouds,42.9668,-71.0995,Iron Wheel Mobile Home Park
415,West Plains,US,63.43,few clouds,36.7281,-91.8524,West Plains Motel
416,Iturama,BR,64.99,clear sky,-19.7281,-50.1956,República DominaCana
417,Nemuro,JP,47.34,scattered clouds,43.3236,145.575,Hotel Nemuro Kaiyoutei
420,Pisco,PE,66.25,clear sky,-13.7,-76.2167,Hotel San Isidro Oficial
421,Tuatapere,NZ,61.9,light rain,-46.1333,167.6833,Ron and Tony's Bed & Breakfast
422,Guerrero Negro,MX,67.3,clear sky,27.9769,-114.0611,"Casa Laguna, Bed & Breakfast"
426,Fethiye,TR,55.27,broken clouds,36.6217,29.1164,Club & Hotel Letoonia
427,Bereda,ES,49.57,overcast clouds,43.2686,-7.5406,Pazo de Verdes
428,Beyneu,KZ,57.9,light rain,45.3167,55.2,NUR
429,Cururupu,BR,74.41,light rain,-1.8283,-44.8683,POUSADA TRAVÉS'CIA
430,Nikolayevka,RU,36.55,clear sky,53.1257,47.2041,"Hotel ""Prestige"""
431,Sobolevo,RU,44.49,overcast clouds,54.4299,31.8996,
433,Katsuura,JP,64.71,overcast clouds,35.1333,140.3,Katsuura Hotel Mikazuki
435,Kasane,BW,67.05,broken clouds,-17.8167,25.15,The Old House
436,Rocha,UY,55.4,clear sky,-34.4833,-54.3333,Hotel Arrarte
442,Great Bend,US,74.61,clear sky,38.3645,-98.7648,Best Western Angus Inn
445,Praya,CV,72.14,clear sky,14.9215,-23.5087,LT Aparthotel
446,Vila Franca Do Campo,PT,67.19,overcast clouds,37.7167,-25.4333,Pestana Bahia Praia
447,Faya,SA,64.51,few clouds,18.3851,42.4509,املاك خالد الشعشوع
449,Broome,US,55.45,overcast clouds,42.2506,-75.833,Chenango Valley State Park
452,Spiridonovka,RU,38.64,clear sky,53.0925,50.6462,
456,Rawah,IQ,61.3,light rain,34.4816,41.9093,
457,Inhambane,MZ,69.04,clear sky,-23.865,35.3833,Oceano
458,Nyurba,RU,40.37,overcast clouds,63.2842,118.3319,"Гостиница ""Comfort"""
460,Fergus,US,70.18,broken clouds,47.3,-109.2674,
461,Nador,MA,61.05,clear sky,35.174,-2.9287,Hôtel La Giralda
463,Chardara,KZ,70.2,clear sky,41.2547,67.9692,Жанаргул
465,Cefalu,IT,61.54,clear sky,38.0386,14.0229,Hotel La Giara
466,Khash,IR,72.37,clear sky,28.2211,61.2158,خوابگاه آبجی محدثه
470,Abaza,RU,53.53,overcast clouds,52.655,90.0928,Гостевой дом «Кедровый»
471,Quatre Cocos,MU,73.51,overcast clouds,-20.2078,57.7625,Sunrise Attitude Hotel
472,Shieli,KZ,73.09,few clouds,44.1667,66.75,Gostinitsa Aybek Shieli
473,Lucapa,AO,70.0,overcast clouds,-8.4192,20.7447,Residência Ulisses Dos Santos
474,Lima,PE,71.91,scattered clouds,-12.0432,-77.0282,Hotel Kamana
475,San Quintin,MX,67.23,clear sky,30.4833,-115.95,Don Eddie's Sport Fishing Center
476,Tunceli,TR,48.04,broken clouds,39.1083,39.5471,Grand Hotel Şaroğlu
477,Mecca,SA,74.91,clear sky,21.4267,39.8261,"Makkah Clock Royal Tower, A Fairmont Hotel"
478,Gramsh,AL,58.33,overcast clouds,40.8697,20.1844,Hotel Tomorri
479,Coihaique,CL,50.61,broken clouds,-45.5752,-72.0662,Diego De Almagro Coyhaique
482,Vostok,RU,46.02,overcast clouds,46.4856,135.8833,
484,Baie-Comeau,CA,38.88,overcast clouds,49.2168,-68.1489,Travelodge by Wyndham Baie-Comeau
485,Alice Springs,AU,56.75,few clouds,-23.7,133.8833,Desert Palms Alice Springs
486,Geraldton,AU,59.41,clear sky,-28.7667,114.6,Broadwater Mariner Resort
494,Fortuna,US,56.66,overcast clouds,40.5982,-124.1573,Super 8 by Wyndham Fortuna
495,Broadford,AU,49.84,overcast clouds,-37.2,145.0667,Sugarloaf Motel
496,Songjianghe,CN,45.34,overcast clouds,42.1859,127.479,Sijisheng Fashion Guest House
497,Kulunda,RU,45.16,overcast clouds,52.566,78.9385,Kulunda 24
500,Taltal,CL,61.88,overcast clouds,-25.4,-70.4833,Residencial Karime
501,Santa Fe,AR,67.01,light rain,-31.6333,-60.7,Conquistador Hotel
502,Boende,CD,69.55,overcast clouds,-0.2167,20.8667,
503,Abu Samrah,SY,55.71,overcast clouds,35.3029,37.1841,
504,Van,TR,45.75,broken clouds,38.4924,43.3831,Elite World Van Hotel
505,Hargeysa,SO,73.87,clear sky,9.56,44.065,City Center Hotel
507,Bergerac,FR,56.88,clear sky,44.8333,0.5,"The Originals City, Hôtel de Bordeaux, Bergerac (Inter-Hotel)"
509,Rio Gallegos,AR,48.25,light rain,-51.6226,-69.2181,Hotel Santa Cruz
510,Sukhumi,GE,53.55,light rain,43.0033,41.0153,Leon Boutique Hotel
511,Churapcha,RU,37.15,scattered clouds,62.0025,132.4325,"""Tusku"""
512,Merrill,US,68.77,clear sky,45.1805,-89.6835,Prairie Motel
514,Berlevag,NO,39.0,overcast clouds,70.8578,29.0864,Kvitbrakka
515,Grants Pass,US,64.9,broken clouds,42.439,-123.3284,La Quinta Inn & Suites by Wyndham Grants Pass
516,Potsdam,DE,60.12,overcast clouds,52.3989,13.0657,Dorint Hotel Sanssouci Berlin/Potsdam
517,Tignere,CM,66.52,overcast clouds,7.3667,12.65,SADECK
519,Batemans Bay,AU,56.1,broken clouds,-35.7167,150.1833,Batemans Bay Marina Resort
520,Saint-Joseph,RE,70.18,scattered clouds,-21.3667,55.6167,"""Plantation Bed and Breakfast"
521,Kysyl-Syr,RU,38.37,overcast clouds,63.8986,122.7617,
522,Springdale,US,66.11,scattered clouds,36.1867,-94.1288,Springdale Inn
524,Vila Do Maio,CV,72.39,clear sky,15.1333,-23.2167,Hotel Marilu
525,Margate,GB,57.87,overcast clouds,51.3813,1.3862,Premier Inn Margate hotel
528,Chililabombwe,ZM,64.08,overcast clouds,-12.3648,27.8229,Tabernacle Guest Lodge and Events (Under new management!)
529,Vredendal,ZA,53.51,few clouds,-31.6683,18.5012,Tharrakamma Guest House
530,Uyuni,BO,49.01,clear sky,-20.4597,-66.825,Hostal La Magia de Uyuni
531,Sinjar,IQ,59.14,scattered clouds,36.3209,41.8754,زوماني فون 1
532,Tecpan,GT,56.98,overcast clouds,14.7623,-90.9947,Villa San Ricardo
533,Gorele,TR,51.4,light rain,41.0308,39.0031,Görele Öğretmenevi
537,Palermo,IT,55.53,broken clouds,37.8167,13.5833,"Ponte Montagnola, Vicari"
539,Kaeo,NZ,68.32,clear sky,-35.1,173.7833,Bushido Lodge
540,Solnechnyy,RU,42.15,few clouds,50.7214,136.6319,Hotel complex Pastoral
542,Elko,US,71.62,overcast clouds,41.0002,-115.5012,
543,Vanavara,RU,41.97,broken clouds,60.34,102.2797,
544,Khandbari,NP,67.75,broken clouds,27.3747,87.2039,Sainik Hotel And Lodge
547,Linxia,CN,63.14,clear sky,35.6003,103.2064,GreenTree Inn Linxia Autonomous Prefecture Linxia Oxford River Avenue Express Hotel
550,Konongo,GH,69.93,overcast clouds,6.6167,-1.2167,Alice Tee Hotel
552,Morondava,MG,74.66,light rain,-20.2833,44.2833,La Case Bambou
556,Zarinsk,RU,50.59,broken clouds,53.7074,84.9493,Gostinitsa
559,Westport,US,53.89,light rain,41.1415,-73.3579,The Inn at Longshore
560,Grenaa,DK,53.82,overcast clouds,56.4158,10.8783,Hotel Marina
561,Rudnogorsk,RU,45.43,broken clouds,57.2639,103.7519,
563,Russellville,US,69.94,clear sky,35.2784,-93.1338,Hampton Inn Russellville
566,Cuamba,MZ,69.66,overcast clouds,-14.8031,36.5372,Hotel Vision
568,Bhowali,IN,60.01,clear sky,29.3833,79.5167,The Royal Court Ananta Express
570,Tinskoy,RU,52.23,scattered clouds,56.1525,96.9161,"Kemping ""Turist"""
572,Souillac,MU,73.78,few clouds,-20.5167,57.5167,Shanti Maurice Resort & Spa
574,Furstenwalde,DE,55.38,broken clouds,52.3667,14.0667,HOTEL KAISERHOF
575,Vysokogornyy,RU,39.74,overcast clouds,50.1167,139.15,
576,Linkoping,SE,51.78,few clouds,58.4109,15.6216,Elite Stora Hotellet
577,Karnobat,BG,46.78,clear sky,42.65,26.9833,Spa Hotel Park
578,Kempele,FI,44.62,clear sky,64.9131,25.5034,Finlandia Hotel Airport Oulu
580,Saint-Donat-De-Montcalm,CA,48.06,clear sky,46.3187,-74.2219,Le Lincoln Marina Spa
581,Umea,SE,39.9,clear sky,63.8284,20.2597,Hotel Avenue | ProfilHotels
584,Muriti,TZ,71.51,light rain,-1.9833,32.9167,
586,Alpena,US,55.72,clear sky,45.0617,-83.4327,Days Inn by Wyndham Alpena
589,Sao Filipe,CV,73.56,clear sky,14.8961,-24.4956,Hotel Xaguate
592,Eyrarbakki,IS,39.25,overcast clouds,63.863,-21.1481,Guesthouse 77
593,Mega,ET,58.32,broken clouds,4.05,38.3,Amanuel Guest House
594,Nigran,ES,66.97,clear sky,42.1415,-8.8066,Hotel Holiday
597,Baruun-Urt,MN,41.79,broken clouds,46.6806,113.2792,Ахмадын амралт сувилал
598,Yantal,RU,47.05,overcast clouds,56.8471,105.2542,
599,Nagato,JP,68.2,overcast clouds,34.3833,131.2,いそう庵
600,Kenai,US,55.02,clear sky,60.5544,-151.2583,Aspen Extended Stay Suites
602,Quelimane,MZ,73.35,few clouds,-17.8786,36.8883,Hotel Flamingo
605,Bambous Virieux,MU,73.65,few clouds,-20.3428,57.7575,Casa Tia Villa
606,Vangaindrano,MG,70.77,light rain,-23.35,47.6,Hotel Fanilo
607,Livingston,GB,49.28,clear sky,55.9029,-3.5226,Mercure Livingston Hotel
608,Pacific Grove,US,70.02,few clouds,36.6177,-121.9166,Lovers Point Inn
609,Sioux Lookout,CA,62.67,broken clouds,50.1001,-91.917,Knobby's Fly-In Camps
611,Benghazi,LY,73.15,few clouds,32.1167,20.0667,Tibesti Hotel
614,Jumla,NP,49.57,few clouds,29.2747,82.1838,Royal Garden Hotel
616,Varzelandia,BR,74.39,broken clouds,-15.7014,-44.0275,Pousada Portal da Cidade
618,Srbobran,RS,57.9,overcast clouds,45.5539,19.8028,Assolutonero Kennel
619,Peniche,PT,56.93,broken clouds,39.3558,-9.3811,Hotel Star inn Peniche
620,Vadso,NO,42.96,overcast clouds,70.0744,29.7487,Scandic Vadsø
621,Beisfjord,NO,44.04,overcast clouds,68.3751,17.5988,
623,Erzin,TR,52.99,scattered clouds,36.9559,36.2,Artemis Otel
624,Ambilobe,MG,70.36,clear sky,-13.2,49.05,Hôtel & Restaurant DIANA Ambilobe
626,Knysna,ZA,61.18,moderate rain,-34.0363,23.0471,Protea Hotel by Marriott Knysna Quays
629,Puerto Madryn,AR,61.25,broken clouds,-42.7692,-65.0385,Hotel Tolosa
630,Aliwal North,ZA,52.97,few clouds,-30.6937,26.7114,Queens Terrace B&B
632,Amapa,BR,73.0,overcast clouds,1.0,-52.0,
636,Ponta Delgada,PT,67.5,broken clouds,37.7333,-25.6667,Vila Nova Hotel
638,Svetlyy,RU,44.65,clear sky,54.675,20.1347,"Gostinitsa-Kafe, Alena"
639,Alvor,PT,65.05,broken clouds,37.1299,-8.5917,Penina Hotel & Golf Resort
640,Imeni Poliny Osipenko,RU,36.84,broken clouds,52.4201,136.4853,Yubileynaya
641,Broken Hill,AU,53.42,clear sky,-31.95,141.4333,Royal Exchange Hotel
642,Fort Smith,US,70.18,scattered clouds,35.3859,-94.3986,Hampton Inn Fort Smith
643,Tekeli,KZ,56.66,moderate rain,44.83,78.8239,Vuslat Tekeli
646,Fukue,JP,71.96,broken clouds,32.6881,128.8419,Goto Guesthouse Utojuku & SA Car Rental
647,Shumskiy,RU,55.29,clear sky,54.8318,99.1328,
648,Pokhara,NP,66.56,scattered clouds,28.2333,83.9833,OYO 170 Hotel View Point
649,Kamaishi,JP,60.53,few clouds,39.2667,141.8833,Hotel Route Inn Kamaishi
650,Skhisma,GR,64.83,scattered clouds,35.2667,25.7167,"Blue Palace, a Luxury Collection Resort and Spa, Crete"
651,Skibbereen,IE,48.11,clear sky,51.55,-9.2667,The West Cork Hotel
653,Palaikastron,GR,60.03,scattered clouds,35.2,26.25,Marina Village
654,Glinka,RU,43.81,overcast clouds,54.6404,32.8781,
658,Chapleau,CA,53.69,clear sky,47.8405,-83.4034,Nemegosenda Lake Lodge
660,Vila,PT,56.28,scattered clouds,42.0304,-8.1588,Hotel Castrum Villae by Walk Hotels
664,Belen,TR,55.54,scattered clouds,36.4891,36.2233,Varlıbaş Uyku Sarayı
666,Khasan,RU,53.51,overcast clouds,42.4308,130.6434,Fangchuan Self-Driving Camp
667,Kumluca,TR,62.37,scattered clouds,36.3703,30.2869,TurkuazKöy
669,Port Pirie,AU,53.69,broken clouds,-33.1833,138.0167,John Pirie Motor Inn
670,Torma,EE,42.66,few clouds,58.8128,26.7383,Torma Puhkemaja
671,Pleshanovo,RU,36.54,clear sky,52.8333,53.4833,Gostevoy Dom Magiya Uyuta
672,Taunggyi,MM,67.32,clear sky,20.7833,97.0333,True Treasure Hotel
674,Shache,CN,70.41,overcast clouds,38.4167,77.2406,Delong Hotel
675,Hirna,ET,62.49,broken clouds,9.2167,41.1,Seid Ali
676,Sept-Iles,CA,36.12,scattered clouds,50.2001,-66.3821,Comfort Inn
678,Sayyan,YE,62.13,clear sky,15.1718,44.3244,ملاطف ابوحورية
679,Ericeira,PT,65.39,overcast clouds,38.9627,-9.4156,HOTEL PEDRO O PESCADOR
680,Salta,AR,55.58,clear sky,-24.7859,-65.4117,Hotel Alejandro I
682,Sajanan,TN,56.32,light rain,37.0573,9.2426,Centre de culture du tabac sejenene
685,Port Hardy,CA,46.4,scattered clouds,50.6996,-127.4199,Airport Inn-Port Hardy
687,Punta Alta,AR,60.6,scattered clouds,-38.8759,-62.0736,Center Hotel Punta Alta
688,Toora-Khem,RU,47.23,clear sky,52.4675,96.11,
690,Xifeng,CN,50.05,scattered clouds,42.7372,124.7222,Home Inn Hotel
693,Rozkishne,UA,40.3,broken clouds,48.5074,39.3004,Домино
695,Gazanjyk,TM,66.61,scattered clouds,39.2446,55.5154,Railway motel
